{
  "points": [
    {
      "id": 1,
      "name": "Remont chodnika – ulica Grochowska",
      "description": "Remont chodnika, uwaga na utrudnienia",
      "lat": 52.245523,
      "lng": 21.083414,
      "plus_code": null,
      "category": "remont",
      "active": true
    },
    {
      "id": 2,
      "name": "Niedziałająca winda",
      "description": "Nie działa winda przy kładce",
      "lat": 52.24458,
      "lng": 21.090516,
      "plus_code": null,
      "category": "awaria",
      "active": true
    },
    {
      "id": 3,
      "name": "Kładka bez windy",
      "description": "Tylko schody",
      "lat": 52.238156,
      "lng": 21.080919,
      "plus_code": null,
      "category": "na stałe",
      "active": true
    },
    {
      "lat": "52.25029509949964",
      "lng": "21.084566116333008",
      "name": "Skrzyżowanie Wiatracznej z Dwernickiego",
      "description": "Remont",
      "category": "remont",
      "id": 4
    },
    {
      "lat": "52.23580955623914",
      "lng": "21.079952716827393",
      "name": "Przejście pod ulicą",
      "description": "Tylko schody i stromy zjazd dla wózków dziecięcych",
      "category": "na stałe",
      "id": 5
    },
    {
      "lat": "52.224204572406094",
      "lng": "21.04358196258545",
      "name": "Torwar 01",
      "description": "Zejście na dół tylko po schodach, brak windy",
      "category": "na stałe",
      "id": 6
    },
    {
      "lat": "52.24406788078239",
      "lng": "21.08636856079102",
      "name": "Zepsuta winda w Galerii Rondo Wiatraczna",
      "description": "jw.",
      "category": "awaria",
      "id": 7
    },
    {
      "lat": "52.2239285392565",
      "lng": "21.044000387191772",
      "name": "",
      "description": "Niedostępny przystanek",
      "category": "na stałe",
      "id": 8
    },
    {
      "lat": "52.25087310922623",
      "lng": "21.091690063476566",
      "name": "",
      "description": "Dziura w chodniku, idk",
      "category": "awaria",
      "id": 9
    }
  ],
  "places": [
    {
      "id": 1,
      "name": "Fundacja Avalon",
      "description": "Siedziba Fundacji Avalon. Miejsce odbywania się zajęć sportowych oraz innych.",
      "plus_code": "5XMV+GM Warszawa",
      "country": "Polska",
      "city": "Warszawa",
      "postcode": "02-672",
      "street": "Domaniewska",
      "number": "50A",
      "lat": 52.183485,
      "lng": 20.994495,
      "accessibility": {
        "key": true,
        "other_key": false
      }
    },
    {
      "id": 2,
      "name": "Galeria Grochów",
      "description": "Galeria bez barier",
      "plus_code": null,
      "country": "Polska",
      "city": "Warszawa",
      "postcode": "04-359",
      "street": "Kobielska",
      "number": "23",
      "lat": 52.246501,
      "lng": 21.085599,
      "accessibility": {
        "something": false,
        "something else": true
      }
    },
    {
      "name": "Szpital MON",
      "description": "Dostępny szpital",
      "lat": "52.25139856607883",
      "lng": "21.088514328002933",
      "country": "Polska",
      "city": "Warszawa",
      "postcode": "04-349",
      "street": "Szaserów",
      "number": "128",
      "accessibility": {
        "isHardcoded": true
      },
      "id": 3
    },
    {
      "name": "CH Atrium Promenada",
      "description": "Ocena dostępności centrum handlowego",
      "lat": "52.23346624233684",
      "lng": "21.10561609268189",
      "country": "Polska",
      "city": "Warszawa",
      "postcode": "04-175",
      "street": "Ostrobramska",
      "number": "75D",
      "accessibility": {
        "isHardcoded": true
      },
      "id": 4
    },
    {
      "name": "Budynek dawnego Wydziału Weterynarii SGGW",
      "description": "Lorem ipsum",
      "lat": "52.247010810365985",
      "lng": "21.070747375488285",
      "country": "",
      "city": "",
      "postcode": "",
      "street": "",
      "number": "",
      "accessibility": {
        "isHardcoded": true
      },
      "id": 5
    }
  ]
}