{
  "points": [
    {
      "lat": "52.235139362254436",
      "lng": "21.037262678146366",
      "name": "Most Poniatowskiego 03",
      "description": "Dostęp do przystanku tramwajowego tylko po schodach",
      "category": "na stałe",
      "id": 1
    },
    {
      "lat": "52.23495867096783",
      "lng": "21.036227345466614",
      "name": "Most Poniatowskiego 04",
      "description": "Dostęp do przystanku tramwajowego tylko po schodach",
      "category": "na stałe",
      "id": 2
    },
    {
      "lat": "52.224089558802284",
      "lng": "21.044000387191772",
      "name": "Torwar 01",
      "description": "Przystanek autobusowy na wiadukcie, dostęp tylko po schodach",
      "category": "na stałe",
      "id": 3
    },
    {
      "lat": "52.224204572406094",
      "lng": "21.04356050491333",
      "name": "Torwar 03",
      "description": "Przystanek autobusowy pod wiaduktem, dostęp tylko po schodach",
      "category": "na stałe",
      "id": 4
    },
    {
      "lat": "52.21964980601295",
      "lng": "21.026335358619693",
      "name": "Plac Na Rozdrożu 06",
      "description": "Przystanek autobusowy pomiędzy pasami jezdni, dostęp tylko po schodach",
      "category": "na stałe",
      "id": 5
    },
    {
      "lat": "52.219531494167654",
      "lng": "21.026362180709842",
      "name": "Plac Na Rozdrożu 05",
      "description": "Przystanek autobusowy pomiędzy pasami jezdni, dostęp tylko po schodach",
      "category": "na stałe",
      "id": 6
    },
    {
      "lat": "52.21807886193176",
      "lng": "21.01988732814789",
      "name": "Marszałkowska 02",
      "description": "Przystanek autobusowy dostępny tylko po schodach",
      "category": "na stałe",
      "id": 7
    },
    {
      "lat": "52.21785208926363",
      "lng": "21.01994633674622",
      "name": "Marszałkowska 01",
      "description": "Przystanek autobusowy dostępny tylko po schodach",
      "category": "na stałe",
      "id": 8
    },
    {
      "lat": "52.21703043946408",
      "lng": "21.01440489292145",
      "name": "Metro Politechnika 51",
      "description": "Tymczasowy przystanek autobusowy z dostępem tylko po schodach",
      "category": "remont",
      "id": 9
    },
    {
      "lat": "52.21730651549231",
      "lng": "21.006245613098148",
      "name": "GUS 06",
      "description": "Przystanek autobusowy dostępny tylko po schodach",
      "category": "na stałe",
      "id": 10
    },
    {
      "lat": "52.217188197404624",
      "lng": "21.006122231483463",
      "name": "GUS 05",
      "description": "Przystanek autobusowy dostępny tylko po schodach",
      "category": "na stałe",
      "id": 11
    },
    {
      "lat": "52.2165966022384",
      "lng": "21.00524246692658",
      "name": "GUS 04",
      "description": "Przystanek tramwajowy pomiędzy pasami jezdni, dostęp jedynie po schodach",
      "category": "na stałe",
      "id": 12
    },
    {
      "lat": "52.21632052179754",
      "lng": "21.005263924598697",
      "name": "GUS 03",
      "description": "Przystanek tramwajowy pomiędzy pasami jezdni, dostęp jedynie po schodach",
      "category": "na stałe",
      "id": 13
    },
    {
      "lat": "52.23006001419572",
      "lng": "21.08705520629883",
      "name": "Remont w parku nad Balatonem",
      "description": "Lorem ipsum dolor sit amet, consectetur adipiscing elit. In iaculis justo in dolor suscipit, elementum euismod nulla vulputate.",
      "category": "remont",
      "id": 14
    },
    {
      "lat": "52.2279899967566",
      "lng": "21.00348830223084",
      "name": "Dworzec Centralny 07",
      "description": "Nie działa winda",
      "category": "awaria",
      "id": 15
    },
    {
      "lat": "52.24041522350549",
      "lng": "21.082806587219242",
      "name": "Skrzyżowanie Grenadierów/Waszyngtona",
      "description": "Remont chodnika, przejście po nierównym terenie",
      "category": "remont",
      "id": 16
    }
  ],
  "places": [
    {
      "name": "Tor Kolarski \"Nowe Dynasy\"",
      "description": "Lorem ipsum dolor sit amet, consectetur adipiscing elit. In iaculis justo in dolor suscipit, elementum euismod nulla vulputate.",
      "lat": "52.25087310922623",
      "lng": "21.072764396667484",
      "country": "Polska",
      "city": "Warszawa",
      "postcode": "03-831",
      "street": "Mińska",
      "toaletaAkt": false,
      "toaletaElektr": false,
      "parking": false,
      "winda": false,
      "brakProgow": false,
      "swobodnyAkt": false,
      "swobodnyElektr": false,
      "drzwiAkt": false,
      "drzwiElektr": false,
      "rownyTeren": false,
      "id": 1
    },
    {
      "name": "Galeria Grochów",
      "description": "Galeria handlowa",
      "lat": "52.24632764768099",
      "lng": "21.08538150787354",
      "country": "Polska",
      "city": "Warszawa",
      "postcode": "04-359",
      "street": "Kobielska",
      "toaletaAkt": true,
      "toaletaElektr": false,
      "parking": true,
      "winda": true,
      "brakProgow": true,
      "swobodnyAkt": true,
      "swobodnyElektr": true,
      "drzwiAkt": true,
      "drzwiElektr": true,
      "rownyTeren": true,
      "id": 2
    },
    {
      "name": "Urząd Miasta Ząbki",
      "description": "Lorem ipsum dolor sit amet, consectetur adipiscing elit. In iaculis justo in dolor suscipit, elementum euismod nulla vulputate.",
      "lat": "52.29461905235775",
      "lng": "21.113507151603702",
      "country": "Polska",
      "postcode": "05-091",
      "street": "Wojska Polskiego",
      "toaletaAkt": true,
      "toaletaElektr": true,
      "parking": true,
      "winda": true,
      "brakProgow": true,
      "swobodnyAkt": true,
      "swobodnyElektr": true,
      "drzwiAkt": true,
      "drzwiElektr": true,
      "rownyTeren": true,
      "id": 3
    },
    {
      "name": "Centralny Szpital Kliniczny MON",
      "description": "Lorem ipsum dolor sit amet, consectetur adipiscing elit. In iaculis justo in dolor suscipit, elementum euismod nulla vulputate.",
      "lat": "52.25139856607883",
      "lng": "21.088514328002933",
      "country": "Polska",
      "city": "Warszawa",
      "postcode": "04-349",
      "street": "Szaserów",
      "toaletaAkt": true,
      "toaletaElektr": true,
      "parking": true,
      "winda": true,
      "brakProgow": true,
      "swobodnyAkt": true,
      "swobodnyElektr": true,
      "drzwiAkt": true,
      "drzwiElektr": true,
      "rownyTeren": true,
      "id": 4
    },
    {
      "name": "Galeria Rondo Wiatraczna",
      "description": "Lorem ipsum dolor sit amet, consectetur adipiscing elit. In iaculis justo in dolor suscipit, elementum euismod nulla vulputate.",
      "lat": "52.24406788078239",
      "lng": "21.08636856079102",
      "country": "Polska",
      "city": "Warszawa",
      "postcode": "04-077",
      "street": "Grochowska",
      "toaletaAkt": true,
      "toaletaElektr": true,
      "parking": true,
      "winda": true,
      "brakProgow": true,
      "swobodnyAkt": true,
      "swobodnyElektr": true,
      "drzwiAkt": true,
      "drzwiElektr": true,
      "rownyTeren": true,
      "id": 5
    },
    {
      "name": "Kościół pw. Najczystszego Serca Maryi",
      "description": "Kościół na Szembeka",
      "lat": "52.24448831124506",
      "lng": "21.103320121765137",
      "country": "Polska",
      "city": "Warszawa",
      "postcode": "04-314",
      "street": "Józefa Chłopickiego",
      "toaletaAkt": false,
      "toaletaElektr": false,
      "parking": true,
      "winda": false,
      "brakProgow": false,
      "swobodnyAkt": true,
      "swobodnyElektr": true,
      "drzwiAkt": true,
      "drzwiElektr": true,
      "rownyTeren": false,
      "id": 6
    }
  ]
}